[
    {
        "id": "6849",
        "address_long": "1700 East State Hwy 84 East, Palestine, Texas, 75801, USA",
        "name": "Eastside",
        "address": "1700 East State Hwy 84 East",
        "city": "Palestine",
        "province": "Texas",
        "postal_code": "75801",
        "country": "USA",
        "phone": "903-738-1435",
        "url": "www.escochrist.com/ES2011WS/ESWSHome.html",
        "email": "",
        "mail": "",
        "assemblydetails": "About .75 miles east of Loop 256 on Hwy. 84",
        "photo": "",
        "contact1name": "",
        "contact1email": "",
        "contact1phone": "",
        "contact2name": "Steve Walsh",
        "contact2email": "stwalsh1@earthlink.net",
        "contact2phone": " 903-724-5865",
        "contact3name": "",
        "contact3email": "",
        "contact3phone": "",
        "bstime": "09:30:00",
        "lstime": "10:30:00",
        "pmtime": "14:00:00",
        "midwkday": "Wednesday",
        "midwktime": "18:00:00",
        "streetview_angle": "226",
        "dist": "23.96",
        "updated": "2019-12-13 06:10:54",
        "latitude": "31.751232",
        "longitude": "-95.597068"
    },
    {
        "id": "6915",
        "address_long": "1512 Rice Road, Tyler, Texas, 75703, USA",
        "name": "Rice Road",
        "address": "1512 Rice Road",
        "city": "Tyler",
        "province": "Texas",
        "postal_code": "75703",
        "country": "USA",
        "phone": "903-581-8468",
        "url": "www.riceroadchurchofchrist.com",
        "email": "",
        "mail": "",
        "assemblydetails": "2 blocks East of Old Jacksonville Hwy",
        "photo": "id_6915",
        "contact1name": "Jeff Stewart",
        "contact1email": "jlstewart914@gmail.com",
        "contact1phone": "903-245-4331",
        "contact2name": "Tristan Ganchero",
        "contact2email": "tganchero@gmail.com",
        "contact2phone": "502-931-1463",
        "contact3name": "Wayne Gandy",
        "contact3email": "wayne.gandy56@yahoo.com",
        "contact3phone": "903-387-2676",
        "bstime": "09:30:00",
        "lstime": "10:30:00",
        "pmtime": "18:00:00",
        "midwkday": "Wednesday",
        "midwktime": "19:00:00",
        "streetview_angle": "192",
        "dist": "24.96",
        "updated": "2021-06-13 15:56:41",
        "latitude": "32.291782",
        "longitude": "-95.322237"
    },
    {
        "id": "6788",
        "address_long": "602 Henderson, Jacksonville, Texas, 75766, USA",
        "name": "Southside",
        "address": "602 Henderson",
        "city": "Jacksonville",
        "province": "Texas",
        "postal_code": "75766",
        "country": "USA",
        "phone": "903-586-3121",
        "url": "www.jacksonvilletx.church",
        "email": "",
        "mail": "Box 1448",
        "assemblydetails": "",
        "photo": "id_6788",
        "contact1name": "Eddie Arrington",
        "contact1email": "eddie@arringtonlumber.com",
        "contact1phone": "903-586-3121",
        "contact2name": "Rick Turner",
        "contact2email": "",
        "contact2phone": "903-586-3121",
        "contact3name": "",
        "contact3email": "",
        "contact3phone": "",
        "bstime": "09:30:00",
        "lstime": "10:25:00",
        "pmtime": "00:00:00",
        "midwkday": "Wednesday",
        "midwktime": "19:00:00",
        "streetview_angle": "52",
        "dist": "26.00",
        "updated": "2019-04-08 15:31:24",
        "latitude": "31.9534392",
        "longitude": "-95.2645631"
    },
    {
        "id": "7737",
        "address_long": "2425 S. Main Street, Lindale, Texas, 75771, USA",
        "name": "South Main",
        "address": "2425 S. Main Street",
        "city": "Lindale",
        "province": "Texas",
        "postal_code": "75771",
        "country": "USA",
        "phone": "903 882-8933",
        "url": "www.smaincoc.com",
        "email": "",
        "mail": "Box 2433",
        "assemblydetails": "",
        "photo": "",
        "contact1name": "Ira Lynn",
        "contact1email": "Ill@suddenlink.net",
        "contact1phone": "903-343-2589",
        "contact2name": "Mike Coyne",
        "contact2email": "coynem@suddenlink.net",
        "contact2phone": "903-780-4273",
        "contact3name": "",
        "contact3email": "",
        "contact3phone": "",
        "bstime": "09:00:00",
        "lstime": "09:50:00",
        "pmtime": "17:00:00",
        "midwkday": "Wednesday",
        "midwktime": "19:00:00",
        "streetview_angle": "270",
        "dist": "31.68",
        "updated": "2021-07-05 11:41:33",
        "latitude": "32.483716",
        "longitude": "-95.396184"
    },
    {
        "id": "6805",
        "address_long": "211 W. Hubbard, Lindale, Texas, 75771, USA",
        "name": "",
        "address": "211 W. Hubbard",
        "city": "Lindale",
        "province": "Texas",
        "postal_code": "75771",
        "country": "USA",
        "phone": "903-882-6455",
        "url": "www.lindalechurchofchrist.com",
        "email": "",
        "mail": "Box 156",
        "assemblydetails": "",
        "photo": "id_6805",
        "contact1name": "Kris Emerson",
        "contact1email": "emersonk78@me.com",
        "contact1phone": "281-683-8478",
        "contact2name": "Ben Shipley",
        "contact2email": "bdship@hotmail.com",
        "contact2phone": "903-521-2709",
        "contact3name": "",
        "contact3email": "",
        "contact3phone": "",
        "bstime": "09:30:00",
        "lstime": "10:20:00",
        "pmtime": "17:00:00",
        "midwkday": "Wednesday",
        "midwktime": "19:00:00",
        "streetview_angle": "327",
        "dist": "33.14",
        "updated": "2021-06-17 12:31:34",
        "latitude": "32.515397",
        "longitude": "-95.411415"
    },
    {
        "id": "7731",
        "address_long": "932 County Road 2504, Canton, Texas, 75103, USA",
        "name": "Teel",
        "address": "932 County Road 2504",
        "city": "Canton",
        "province": "Texas",
        "postal_code": "75103",
        "country": "USA",
        "phone": "",
        "url": "",
        "email": "",
        "mail": "",
        "assemblydetails": "7 miles w. of Canton on Hwy243, then 1.5 miles south on CR2504 in Teel community.",
        "photo": "",
        "contact1name": "",
        "contact1email": "",
        "contact1phone": "",
        "contact2name": "",
        "contact2email": "",
        "contact2phone": "",
        "contact3name": "Bill Teel",
        "contact3email": "",
        "contact3phone": "903-848-9161",
        "bstime": "10:00:00",
        "lstime": "10:30:00",
        "pmtime": "18:00:00",
        "midwkday": "",
        "midwktime": "00:00:00",
        "streetview_angle": "72",
        "dist": "35.31",
        "updated": "2011-06-27 23:13:35",
        "latitude": "32.5276742509561",
        "longitude": "-95.9936213493347"
    },
    {
        "id": "6843",
        "address_long": "Highway 79, Oakwood, Texas, 75855, USA",
        "name": "Hwy 79",
        "address": "Highway 79",
        "city": "Oakwood",
        "province": "Texas",
        "postal_code": "75855",
        "country": "USA",
        "phone": "",
        "url": "",
        "email": "",
        "mail": "Box 16",
        "assemblydetails": "",
        "photo": "",
        "contact1name": "",
        "contact1email": "",
        "contact1phone": "",
        "contact2name": "",
        "contact2email": "",
        "contact2phone": "",
        "contact3name": "",
        "contact3email": "",
        "contact3phone": "",
        "bstime": "00:00:00",
        "lstime": "00:00:00",
        "pmtime": "00:00:00",
        "midwkday": "",
        "midwktime": "00:00:00",
        "streetview_angle": "-2",
        "dist": "36.58",
        "updated": "0000-00-00 00:00:00",
        "latitude": "31.5829134526589",
        "longitude": "-95.8525264263153"
    },
    {
        "id": "6792",
        "address_long": "605 South Main St., Kemp, Texas, 75143, USA",
        "name": "Kemp",
        "address": "605 South Main St.",
        "city": "Kemp",
        "province": "Texas",
        "postal_code": "75143",
        "country": "USA",
        "phone": "903-498-8651",
        "url": "",
        "email": "",
        "mail": "Box 341",
        "assemblydetails": "Exit Old Business Hwy 175",
        "photo": "id_6792",
        "contact1name": "Gene Samford",
        "contact1email": "gsam76@sbcglobal.net",
        "contact1phone": "832-344 7205",
        "contact2name": "Terry Webb",
        "contact2email": "terryloiswebb@sbcglobal.net",
        "contact2phone": "972-978-9448",
        "contact3name": "Robert Smith",
        "contact3email": "robertsmith@suddenlink.net",
        "contact3phone": "972-551-0900",
        "bstime": "09:45:00",
        "lstime": "10:45:00",
        "pmtime": "17:00:00",
        "midwkday": "Wednesday",
        "midwktime": "19:00:00",
        "streetview_angle": "121",
        "dist": "40.15",
        "updated": "2021-06-03 21:05:58",
        "latitude": "32.43905",
        "longitude": "-96.229083"
    },
    {
        "id": "6759",
        "address_long": "400 West O'Hara St, Grand Saline, Texas, 75140, USA",
        "name": "Grand Saline",
        "address": "400 West O'Hara St",
        "city": "Grand Saline",
        "province": "Texas",
        "postal_code": "75140",
        "country": "USA",
        "phone": "903-962-4902",
        "url": "www.grandsalinechurchofchrist.com",
        "email": "",
        "mail": "Box 82",
        "assemblydetails": "Take Oleander heading North of US Hwy 80 go two blocks and then turn right onto O'Hara Street",
        "photo": "",
        "contact1name": "Kyle White",
        "contact1email": "",
        "contact1phone": "903-445-6030",
        "contact2name": "Rex White",
        "contact2email": "rexwhite.gs@gmail.com",
        "contact2phone": "903-962-3455 ",
        "contact3name": "Danny Milam",
        "contact3email": "draymilam@aol.com",
        "contact3phone": "903-962-6146",
        "bstime": "10:00:00",
        "lstime": "10:50:00",
        "pmtime": "17:00:00",
        "midwkday": "Wednesday",
        "midwktime": "19:00:00",
        "streetview_angle": "-1",
        "dist": "40.47",
        "updated": "2021-04-21 14:30:51",
        "latitude": "32.67683",
        "longitude": "-95.712886"
    },
    {
        "id": "6833",
        "address_long": "326 W North Loop 564, Mineola, Texas, 75773, USA",
        "name": "North Loop",
        "address": "326 W North Loop 564",
        "city": "Mineola",
        "province": "Texas",
        "postal_code": "75773",
        "country": "USA",
        "phone": "903-569-3117",
        "url": "",
        "email": "",
        "mail": "Box 963",
        "assemblydetails": "between Hwy. 69 and Hwy. 37",
        "photo": "",
        "contact1name": "Richard C. Sims, Jr.",
        "contact1email": "richndebbie@juno.com",
        "contact1phone": "903-941-1150",
        "contact2name": "Loran Porter",
        "contact2email": "docz20@aol.com",
        "contact2phone": "903-638-6558",
        "contact3name": "",
        "contact3email": "",
        "contact3phone": "",
        "bstime": "10:00:00",
        "lstime": "11:00:00",
        "pmtime": "18:00:00",
        "midwkday": "Wednesday",
        "midwktime": "19:00:00",
        "streetview_angle": "340",
        "dist": "42.67",
        "updated": "2019-08-27 09:40:50",
        "latitude": "32.6882746006422",
        "longitude": "-95.4876494407654"
    }
]
