[
    {
        "id": "6849",
        "address_long": "1700 East State Hwy 84 East, Palestine, Texas, 75801, USA",
        "name": "Eastside",
        "address": "1700 East State Hwy 84 East",
        "city": "Palestine",
        "province": "Texas",
        "postal_code": "75801",
        "country": "USA",
        "phone": "903-738-1435",
        "url": "www.escochrist.com/ES2011WS/ESWSHome.html",
        "email": "",
        "mail": "",
        "assemblydetails": "About .75 miles east of Loop 256 on Hwy. 84",
        "photo": "",
        "contact1name": "",
        "contact1email": "",
        "contact1phone": "",
        "contact2name": "Steve Walsh",
        "contact2email": "stwalsh1@earthlink.net",
        "contact2phone": " 903-724-5865",
        "contact3name": "",
        "contact3email": "",
        "contact3phone": "",
        "bstime": "09:30:00",
        "lstime": "10:30:00",
        "pmtime": "14:00:00",
        "midwkday": "Wednesday",
        "midwktime": "18:00:00",
        "streetview_angle": "226",
        "dist": "23.96",
        "updated": "2019-12-13 06:10:54",
        "latitude": "31.751232",
        "longitude": "-95.597068"
    },
    {
        "id": "6915",
        "address_long": "1512 Rice Road, Tyler, Texas, 75703, USA",
        "name": "Rice Road",
        "address": "1512 Rice Road",
        "city": "Tyler",
        "province": "Texas",
        "postal_code": "75703",
        "country": "USA",
        "phone": "903-581-8468",
        "url": "www.riceroadchurchofchrist.com",
        "email": "",
        "mail": "",
        "assemblydetails": "2 blocks East of Old Jacksonville Hwy",
        "photo": "id_6915",
        "contact1name": "Jeff Stewart",
        "contact1email": "jlstewart914@gmail.com",
        "contact1phone": "903-245-4331",
        "contact2name": "Tristan Ganchero",
        "contact2email": "tganchero@gmail.com",
        "contact2phone": "502-931-1463",
        "contact3name": "Wayne Gandy",
        "contact3email": "wayne.gandy56@yahoo.com",
        "contact3phone": "903-387-2676",
        "bstime": "09:30:00",
        "lstime": "10:30:00",
        "pmtime": "18:00:00",
        "midwkday": "Wednesday",
        "midwktime": "19:00:00",
        "streetview_angle": "192",
        "dist": "24.96",
        "updated": "2021-06-13 15:56:41",
        "latitude": "32.291782",
        "longitude": "-95.322237"
    },
    {
        "id": "6788",
        "address_long": "602 Henderson, Jacksonville, Texas, 75766, USA",
        "name": "Southside",
        "address": "602 Henderson",
        "city": "Jacksonville",
        "province": "Texas",
        "postal_code": "75766",
        "country": "USA",
        "phone": "903-586-3121",
        "url": "www.jacksonvilletx.church",
        "email": "",
        "mail": "Box 1448",
        "assemblydetails": "",
        "photo": "id_6788",
        "contact1name": "Eddie Arrington",
        "contact1email": "eddie@arringtonlumber.com",
        "contact1phone": "903-586-3121",
        "contact2name": "Rick Turner",
        "contact2email": "",
        "contact2phone": "903-586-3121",
        "contact3name": "",
        "contact3email": "",
        "contact3phone": "",
        "bstime": "09:30:00",
        "lstime": "10:25:00",
        "pmtime": "00:00:00",
        "midwkday": "Wednesday",
        "midwktime": "19:00:00",
        "streetview_angle": "52",
        "dist": "26.00",
        "updated": "2019-04-08 15:31:24",
        "latitude": "31.9534392",
        "longitude": "-95.2645631"
    },
    {
        "id": "7737",
        "address_long": "2425 S. Main Street, Lindale, Texas, 75771, USA",
        "name": "South Main",
        "address": "2425 S. Main Street",
        "city": "Lindale",
        "province": "Texas",
        "postal_code": "75771",
        "country": "USA",
        "phone": "903 882-8933",
        "url": "www.smaincoc.com",
        "email": "",
        "mail": "Box 2433",
        "assemblydetails": "",
        "photo": "",
        "contact1name": "Ira Lynn",
        "contact1email": "Ill@suddenlink.net",
        "contact1phone": "903-343-2589",
        "contact2name": "Mike Coyne",
        "contact2email": "coynem@suddenlink.net",
        "contact2phone": "903-780-4273",
        "contact3name": "",
        "contact3email": "",
        "contact3phone": "",
        "bstime": "09:00:00",
        "lstime": "09:50:00",
        "pmtime": "17:00:00",
        "midwkday": "Wednesday",
        "midwktime": "19:00:00",
        "streetview_angle": "270",
        "dist": "31.68",
        "updated": "2021-07-05 11:41:33",
        "latitude": "32.483716",
        "longitude": "-95.396184"
    },
    {
        "id": "6805",
        "address_long": "211 W. Hubbard, Lindale, Texas, 75771, USA",
        "name": "",
        "address": "211 W. Hubbard",
        "city": "Lindale",
        "province": "Texas",
        "postal_code": "75771",
        "country": "USA",
        "phone": "903-882-6455",
        "url": "www.lindalechurchofchrist.com",
        "email": "",
        "mail": "Box 156",
        "assemblydetails": "",
        "photo": "id_6805",
        "contact1name": "Kris Emerson",
        "contact1email": "emersonk78@me.com",
        "contact1phone": "281-683-8478",
        "contact2name": "Ben Shipley",
        "contact2email": "bdship@hotmail.com",
        "contact2phone": "903-521-2709",
        "contact3name": "",
        "contact3email": "",
        "contact3phone": "",
        "bstime": "09:30:00",
        "lstime": "10:20:00",
        "pmtime": "17:00:00",
        "midwkday": "Wednesday",
        "midwktime": "19:00:00",
        "streetview_angle": "327",
        "dist": "33.14",
        "updated": "2021-06-17 12:31:34",
        "latitude": "32.515397",
        "longitude": "-95.411415"
    },
    {
        "id": "7731",
        "address_long": "932 County Road 2504, Canton, Texas, 75103, USA",
        "name": "Teel",
        "address": "932 County Road 2504",
        "city": "Canton",
        "province": "Texas",
        "postal_code": "75103",
        "country": "USA",
        "phone": "",
        "url": "",
        "email": "",
        "mail": "",
        "assemblydetails": "7 miles w. of Canton on Hwy243, then 1.5 miles south on CR2504 in Teel community.",
        "photo": "",
        "contact1name": "",
        "contact1email": "",
        "contact1phone": "",
        "contact2name": "",
        "contact2email": "",
        "contact2phone": "",
        "contact3name": "Bill Teel",
        "contact3email": "",
        "contact3phone": "903-848-9161",
        "bstime": "10:00:00",
        "lstime": "10:30:00",
        "pmtime": "18:00:00",
        "midwkday": "",
        "midwktime": "00:00:00",
        "streetview_angle": "72",
        "dist": "35.31",
        "updated": "2011-06-27 23:13:35",
        "latitude": "32.5276742509561",
        "longitude": "-95.9936213493347"
    },
    {
        "id": "6843",
        "address_long": "Highway 79, Oakwood, Texas, 75855, USA",
        "name": "Hwy 79",
        "address": "Highway 79",
        "city": "Oakwood",
        "province": "Texas",
        "postal_code": "75855",
        "country": "USA",
        "phone": "",
        "url": "",
        "email": "",
        "mail": "Box 16",
        "assemblydetails": "",
        "photo": "",
        "contact1name": "",
        "contact1email": "",
        "contact1phone": "",
        "contact2name": "",
        "contact2email": "",
        "contact2phone": "",
        "contact3name": "",
        "contact3email": "",
        "contact3phone": "",
        "bstime": "00:00:00",
        "lstime": "00:00:00",
        "pmtime": "00:00:00",
        "midwkday": "",
        "midwktime": "00:00:00",
        "streetview_angle": "-2",
        "dist": "36.58",
        "updated": "0000-00-00 00:00:00",
        "latitude": "31.5829134526589",
        "longitude": "-95.8525264263153"
    },
    {
        "id": "6792",
        "address_long": "605 South Main St., Kemp, Texas, 75143, USA",
        "name": "Kemp",
        "address": "605 South Main St.",
        "city": "Kemp",
        "province": "Texas",
        "postal_code": "75143",
        "country": "USA",
        "phone": "903-498-8651",
        "url": "",
        "email": "",
        "mail": "Box 341",
        "assemblydetails": "Exit Old Business Hwy 175",
        "photo": "id_6792",
        "contact1name": "Gene Samford",
        "contact1email": "gsam76@sbcglobal.net",
        "contact1phone": "832-344 7205",
        "contact2name": "Terry Webb",
        "contact2email": "terryloiswebb@sbcglobal.net",
        "contact2phone": "972-978-9448",
        "contact3name": "Robert Smith",
        "contact3email": "robertsmith@suddenlink.net",
        "contact3phone": "972-551-0900",
        "bstime": "09:45:00",
        "lstime": "10:45:00",
        "pmtime": "17:00:00",
        "midwkday": "Wednesday",
        "midwktime": "19:00:00",
        "streetview_angle": "121",
        "dist": "40.15",
        "updated": "2021-06-03 21:05:58",
        "latitude": "32.43905",
        "longitude": "-96.229083"
    },
    {
        "id": "6759",
        "address_long": "400 West O'Hara St, Grand Saline, Texas, 75140, USA",
        "name": "Grand Saline",
        "address": "400 West O'Hara St",
        "city": "Grand Saline",
        "province": "Texas",
        "postal_code": "75140",
        "country": "USA",
        "phone": "903-962-4902",
        "url": "www.grandsalinechurchofchrist.com",
        "email": "",
        "mail": "Box 82",
        "assemblydetails": "Take Oleander heading North of US Hwy 80 go two blocks and then turn right onto O'Hara Street",
        "photo": "",
        "contact1name": "Kyle White",
        "contact1email": "",
        "contact1phone": "903-445-6030",
        "contact2name": "Rex White",
        "contact2email": "rexwhite.gs@gmail.com",
        "contact2phone": "903-962-3455 ",
        "contact3name": "Danny Milam",
        "contact3email": "draymilam@aol.com",
        "contact3phone": "903-962-6146",
        "bstime": "10:00:00",
        "lstime": "10:50:00",
        "pmtime": "17:00:00",
        "midwkday": "Wednesday",
        "midwktime": "19:00:00",
        "streetview_angle": "-1",
        "dist": "40.47",
        "updated": "2021-04-21 14:30:51",
        "latitude": "32.67683",
        "longitude": "-95.712886"
    },
    {
        "id": "6833",
        "address_long": "326 W North Loop 564, Mineola, Texas, 75773, USA",
        "name": "North Loop",
        "address": "326 W North Loop 564",
        "city": "Mineola",
        "province": "Texas",
        "postal_code": "75773",
        "country": "USA",
        "phone": "903-569-3117",
        "url": "",
        "email": "",
        "mail": "Box 963",
        "assemblydetails": "between Hwy. 69 and Hwy. 37",
        "photo": "",
        "contact1name": "Richard C. Sims, Jr.",
        "contact1email": "richndebbie@juno.com",
        "contact1phone": "903-941-1150",
        "contact2name": "Loran Porter",
        "contact2email": "docz20@aol.com",
        "contact2phone": "903-638-6558",
        "contact3name": "",
        "contact3email": "",
        "contact3phone": "",
        "bstime": "10:00:00",
        "lstime": "11:00:00",
        "pmtime": "18:00:00",
        "midwkday": "Wednesday",
        "midwktime": "19:00:00",
        "streetview_angle": "340",
        "dist": "42.67",
        "updated": "2019-08-27 09:40:50",
        "latitude": "32.6882746006422",
        "longitude": "-95.4876494407654"
    },
    {
        "id": "6759",
        "address_long": "400 West O'Hara St, Grand Saline, Texas, 75140, USA",
        "name": "Grand Saline",
        "address": "400 West O'Hara St",
        "city": "Grand Saline",
        "province": "Texas",
        "postal_code": "75140",
        "country": "USA",
        "phone": "903-962-4902",
        "url": "www.grandsalinechurchofchrist.com",
        "email": "",
        "mail": "Box 82",
        "assemblydetails": "Take Oleander heading North of US Hwy 80 go two blocks and then turn right onto O'Hara Street",
        "photo": "",
        "contact1name": "Kyle White",
        "contact1email": "",
        "contact1phone": "903-445-6030",
        "contact2name": "Rex White",
        "contact2email": "rexwhite.gs@gmail.com",
        "contact2phone": "903-962-3455 ",
        "contact3name": "Danny Milam",
        "contact3email": "draymilam@aol.com",
        "contact3phone": "903-962-6146",
        "bstime": "10:00:00",
        "lstime": "10:50:00",
        "pmtime": "17:00:00",
        "midwkday": "Wednesday",
        "midwktime": "19:00:00",
        "streetview_angle": "-1",
        "dist": "5.81",
        "updated": "2021-04-21 14:30:51",
        "latitude": "32.67683",
        "longitude": "-95.712886"
    },
    {
        "id": "6833",
        "address_long": "326 W North Loop 564, Mineola, Texas, 75773, USA",
        "name": "North Loop",
        "address": "326 W North Loop 564",
        "city": "Mineola",
        "province": "Texas",
        "postal_code": "75773",
        "country": "USA",
        "phone": "903-569-3117",
        "url": "",
        "email": "",
        "mail": "Box 963",
        "assemblydetails": "between Hwy. 69 and Hwy. 37",
        "photo": "",
        "contact1name": "Richard C. Sims, Jr.",
        "contact1email": "richndebbie@juno.com",
        "contact1phone": "903-941-1150",
        "contact2name": "Loran Porter",
        "contact2email": "docz20@aol.com",
        "contact2phone": "903-638-6558",
        "contact3name": "",
        "contact3email": "",
        "contact3phone": "",
        "bstime": "10:00:00",
        "lstime": "11:00:00",
        "pmtime": "18:00:00",
        "midwkday": "Wednesday",
        "midwktime": "19:00:00",
        "streetview_angle": "340",
        "dist": "12.69",
        "updated": "2019-08-27 09:40:50",
        "latitude": "32.6882746006422",
        "longitude": "-95.4876494407654"
    },
    {
        "id": "6805",
        "address_long": "211 W. Hubbard, Lindale, Texas, 75771, USA",
        "name": "",
        "address": "211 W. Hubbard",
        "city": "Lindale",
        "province": "Texas",
        "postal_code": "75771",
        "country": "USA",
        "phone": "903-882-6455",
        "url": "www.lindalechurchofchrist.com",
        "email": "",
        "mail": "Box 156",
        "assemblydetails": "",
        "photo": "id_6805",
        "contact1name": "Kris Emerson",
        "contact1email": "emersonk78@me.com",
        "contact1phone": "281-683-8478",
        "contact2name": "Ben Shipley",
        "contact2email": "bdship@hotmail.com",
        "contact2phone": "903-521-2709",
        "contact3name": "",
        "contact3email": "",
        "contact3phone": "",
        "bstime": "09:30:00",
        "lstime": "10:20:00",
        "pmtime": "17:00:00",
        "midwkday": "Wednesday",
        "midwktime": "19:00:00",
        "streetview_angle": "327",
        "dist": "16.52",
        "updated": "2021-06-17 12:31:34",
        "latitude": "32.515397",
        "longitude": "-95.411415"
    },
    {
        "id": "7737",
        "address_long": "2425 S. Main Street, Lindale, Texas, 75771, USA",
        "name": "South Main",
        "address": "2425 S. Main Street",
        "city": "Lindale",
        "province": "Texas",
        "postal_code": "75771",
        "country": "USA",
        "phone": "903 882-8933",
        "url": "www.smaincoc.com",
        "email": "",
        "mail": "Box 2433",
        "assemblydetails": "",
        "photo": "",
        "contact1name": "Ira Lynn",
        "contact1email": "Ill@suddenlink.net",
        "contact1phone": "903-343-2589",
        "contact2name": "Mike Coyne",
        "contact2email": "coynem@suddenlink.net",
        "contact2phone": "903-780-4273",
        "contact3name": "",
        "contact3email": "",
        "contact3phone": "",
        "bstime": "09:00:00",
        "lstime": "09:50:00",
        "pmtime": "17:00:00",
        "midwkday": "Wednesday",
        "midwktime": "19:00:00",
        "streetview_angle": "270",
        "dist": "18.19",
        "updated": "2021-07-05 11:41:33",
        "latitude": "32.483716",
        "longitude": "-95.396184"
    },
    {
        "id": "7731",
        "address_long": "932 County Road 2504, Canton, Texas, 75103, USA",
        "name": "Teel",
        "address": "932 County Road 2504",
        "city": "Canton",
        "province": "Texas",
        "postal_code": "75103",
        "country": "USA",
        "phone": "",
        "url": "",
        "email": "",
        "mail": "",
        "assemblydetails": "7 miles w. of Canton on Hwy243, then 1.5 miles south on CR2504 in Teel community.",
        "photo": "",
        "contact1name": "",
        "contact1email": "",
        "contact1phone": "",
        "contact2name": "",
        "contact2email": "",
        "contact2phone": "",
        "contact3name": "Bill Teel",
        "contact3email": "",
        "contact3phone": "903-848-9161",
        "bstime": "10:00:00",
        "lstime": "10:30:00",
        "pmtime": "18:00:00",
        "midwkday": "",
        "midwktime": "00:00:00",
        "streetview_angle": "72",
        "dist": "19.01",
        "updated": "2011-06-27 23:13:35",
        "latitude": "32.5276742509561",
        "longitude": "-95.9936213493347"
    },
    {
        "id": "6915",
        "address_long": "1512 Rice Road, Tyler, Texas, 75703, USA",
        "name": "Rice Road",
        "address": "1512 Rice Road",
        "city": "Tyler",
        "province": "Texas",
        "postal_code": "75703",
        "country": "USA",
        "phone": "903-581-8468",
        "url": "www.riceroadchurchofchrist.com",
        "email": "",
        "mail": "",
        "assemblydetails": "2 blocks East of Old Jacksonville Hwy",
        "photo": "id_6915",
        "contact1name": "Jeff Stewart",
        "contact1email": "jlstewart914@gmail.com",
        "contact1phone": "903-245-4331",
        "contact2name": "Tristan Ganchero",
        "contact2email": "tganchero@gmail.com",
        "contact2phone": "502-931-1463",
        "contact3name": "Wayne Gandy",
        "contact3email": "wayne.gandy56@yahoo.com",
        "contact3phone": "903-387-2676",
        "bstime": "09:30:00",
        "lstime": "10:30:00",
        "pmtime": "18:00:00",
        "midwkday": "Wednesday",
        "midwktime": "19:00:00",
        "streetview_angle": "192",
        "dist": "29.60",
        "updated": "2021-06-13 15:56:41",
        "latitude": "32.291782",
        "longitude": "-95.322237"
    },
    {
        "id": "6792",
        "address_long": "605 South Main St., Kemp, Texas, 75143, USA",
        "name": "Kemp",
        "address": "605 South Main St.",
        "city": "Kemp",
        "province": "Texas",
        "postal_code": "75143",
        "country": "USA",
        "phone": "903-498-8651",
        "url": "",
        "email": "",
        "mail": "Box 341",
        "assemblydetails": "Exit Old Business Hwy 175",
        "photo": "id_6792",
        "contact1name": "Gene Samford",
        "contact1email": "gsam76@sbcglobal.net",
        "contact1phone": "832-344 7205",
        "contact2name": "Terry Webb",
        "contact2email": "terryloiswebb@sbcglobal.net",
        "contact2phone": "972-978-9448",
        "contact3name": "Robert Smith",
        "contact3email": "robertsmith@suddenlink.net",
        "contact3phone": "972-551-0900",
        "bstime": "09:45:00",
        "lstime": "10:45:00",
        "pmtime": "17:00:00",
        "midwkday": "Wednesday",
        "midwktime": "19:00:00",
        "streetview_angle": "121",
        "dist": "33.93",
        "updated": "2021-06-03 21:05:58",
        "latitude": "32.43905",
        "longitude": "-96.229083"
    },
    {
        "id": "6906",
        "address_long": "1208 S. Davis St., Sulphur Springs, Texas, 75483, USA",
        "name": "Southside",
        "address": "1208 S. Davis St.",
        "city": "Sulphur Springs",
        "province": "Texas",
        "postal_code": "75483",
        "country": "USA",
        "phone": "",
        "url": "www.churchofchristss.com",
        "email": "",
        "mail": "Box 271",
        "assemblydetails": "",
        "photo": "",
        "contact1name": "Shane Carrington",
        "contact1email": "bshanec@mac.com",
        "contact1phone": "903-439-4639",
        "contact2name": "George Walker",
        "contact2email": "george@ghwc.net",
        "contact2phone": "903-885-5197",
        "contact3name": "Bob Parker",
        "contact3email": "",
        "contact3phone": "903-885-2670",
        "bstime": "09:30:00",
        "lstime": "10:30:00",
        "pmtime": "17:00:00",
        "midwkday": "Wednesday",
        "midwktime": "19:00:00",
        "streetview_angle": "116",
        "dist": "36.23",
        "updated": "2021-05-04 14:27:52",
        "latitude": "33.1188324101244",
        "longitude": "-95.60239393862304"
    },
    {
        "id": "6761",
        "address_long": "10000 South Wesley, Greenville, Texas, 75401, USA",
        "name": "Hillside",
        "address": "10000 South Wesley",
        "city": "Greenville",
        "province": "Texas",
        "postal_code": "75401",
        "country": "USA",
        "phone": "903-454-9324",
        "url": "",
        "email": "",
        "mail": "box 9213",
        "assemblydetails": "",
        "photo": "",
        "contact1name": "Kenneth Hale",
        "contact1email": "",
        "contact1phone": "903-454-1182",
        "contact2name": "Ray Miller",
        "contact2email": "",
        "contact2phone": "903-450-7191",
        "contact3name": "Clint Stuart",
        "contact3email": "",
        "contact3phone": "903-454-3304",
        "bstime": "09:30:00",
        "lstime": "10:30:00",
        "pmtime": "00:00:00",
        "midwkday": "Wednesday",
        "midwktime": "19:30:00",
        "streetview_angle": "285",
        "dist": "41.14",
        "updated": "2021-02-18 11:56:16",
        "latitude": "33.070335",
        "longitude": "-96.109946"
    },
    {
        "id": "7858",
        "address_long": "2801 Rodeo Drive, Greenville, TX, 75402, USA",
        "name": "Greenville",
        "address": "2801 Rodeo Drive",
        "city": "Greenville",
        "province": "TX",
        "postal_code": "75402",
        "country": "USA",
        "phone": "",
        "url": "www.gospelnotes.info/assembly-times-directions.html",
        "email": "",
        "mail": "Box 9348, Greenville, TX 75404",
        "assemblydetails": "From I-30, exit Hwy 34 (Wesley St);  Go South on Hwy 34 for approximately 0.9 mile;  Turn right onto Rodeo Drive;  Building is at far end of road on left.",
        "photo": "",
        "contact1name": "Tracy Pierce",
        "contact1email": "tracypierce112@yahoo.com",
        "contact1phone": "(903) 268-8656",
        "contact2name": "Mike Miller",
        "contact2email": "mtmiller94@hotmail.com",
        "contact2phone": "(903) 855-9885",
        "contact3name": "Michael Wright",
        "contact3email": "TXWrightCrew@gmail.com",
        "contact3phone": "214-923-8772",
        "bstime": "09:30:00",
        "lstime": "10:30:00",
        "pmtime": "00:00:00",
        "midwkday": "Wednesday",
        "midwktime": "19:00:00",
        "streetview_angle": "536",
        "dist": "41.82",
        "updated": "2021-05-03 17:55:14",
        "latitude": "33.0822799060627",
        "longitude": "-96.110625390213"
    },
    {
        "id": "6906",
        "address_long": "1208 S. Davis St., Sulphur Springs, Texas, 75483, USA",
        "name": "Southside",
        "address": "1208 S. Davis St.",
        "city": "Sulphur Springs",
        "province": "Texas",
        "postal_code": "75483",
        "country": "USA",
        "phone": "",
        "url": "www.churchofchristss.com",
        "email": "",
        "mail": "Box 271",
        "assemblydetails": "",
        "photo": "",
        "contact1name": "Shane Carrington",
        "contact1email": "bshanec@mac.com",
        "contact1phone": "903-439-4639",
        "contact2name": "George Walker",
        "contact2email": "george@ghwc.net",
        "contact2phone": "903-885-5197",
        "contact3name": "Bob Parker",
        "contact3email": "",
        "contact3phone": "903-885-2670",
        "bstime": "09:30:00",
        "lstime": "10:30:00",
        "pmtime": "17:00:00",
        "midwkday": "Wednesday",
        "midwktime": "19:00:00",
        "streetview_angle": "116",
        "dist": "4.47",
        "updated": "2021-05-04 14:27:52",
        "latitude": "33.1188324101244",
        "longitude": "-95.60239393862304"
    },
    {
        "id": "6729",
        "address_long": "6617 Farm Road 69 North, Dike, Texas, 75437, USA",
        "name": "",
        "address": "6617 Farm Road 69 North",
        "city": "Dike",
        "province": "Texas",
        "postal_code": "75437",
        "country": "USA",
        "phone": "903-945-3300",
        "url": "",
        "email": "",
        "mail": "Box 2",
        "assemblydetails": "",
        "photo": "",
        "contact1name": "",
        "contact1email": "",
        "contact1phone": "",
        "contact2name": "",
        "contact2email": "",
        "contact2phone": "",
        "contact3name": "",
        "contact3email": "",
        "contact3phone": "",
        "bstime": "00:00:00",
        "lstime": "00:00:00",
        "pmtime": "00:00:00",
        "midwkday": "",
        "midwktime": "00:00:00",
        "streetview_angle": "285",
        "dist": "14.47",
        "updated": "0000-00-00 00:00:00",
        "latitude": "33.235538",
        "longitude": "-95.482221"
    },
    {
        "id": "6707",
        "address_long": "120 Highway 64 West, Cooper, Texas, 75432, USA",
        "name": "Cooper",
        "address": "120 Highway 64 West",
        "city": "Cooper",
        "province": "Texas",
        "postal_code": "75432",
        "country": "USA",
        "phone": "903-395-4278",
        "url": "www.cooperchurchofchrist.com",
        "email": "",
        "mail": "Rt 2, Box 207 A-1",
        "assemblydetails": "Next to Dairy Queen",
        "photo": "id_6707",
        "contact1name": "Noel S. Bailey",
        "contact1email": "noelbailey100@yahoo.com",
        "contact1phone": "903-439-8099- cell",
        "contact2name": "",
        "contact2email": "",
        "contact2phone": "",
        "contact3name": "",
        "contact3email": "",
        "contact3phone": "",
        "bstime": "09:30:00",
        "lstime": "10:20:00",
        "pmtime": "17:00:00",
        "midwkday": "Wednesday",
        "midwktime": "19:00:00",
        "streetview_angle": "60",
        "dist": "18.77",
        "updated": "2021-06-11 08:10:29",
        "latitude": "33.3757672737463",
        "longitude": "-95.70108890533449"
    },
    {
        "id": "7858",
        "address_long": "2801 Rodeo Drive, Greenville, TX, 75402, USA",
        "name": "Greenville",
        "address": "2801 Rodeo Drive",
        "city": "Greenville",
        "province": "TX",
        "postal_code": "75402",
        "country": "USA",
        "phone": "",
        "url": "www.gospelnotes.info/assembly-times-directions.html",
        "email": "",
        "mail": "Box 9348, Greenville, TX 75404",
        "assemblydetails": "From I-30, exit Hwy 34 (Wesley St);  Go South on Hwy 34 for approximately 0.9 mile;  Turn right onto Rodeo Drive;  Building is at far end of road on left.",
        "photo": "",
        "contact1name": "Tracy Pierce",
        "contact1email": "tracypierce112@yahoo.com",
        "contact1phone": "(903) 268-8656",
        "contact2name": "Mike Miller",
        "contact2email": "mtmiller94@hotmail.com",
        "contact2phone": "(903) 855-9885",
        "contact3name": "Michael Wright",
        "contact3email": "TXWrightCrew@gmail.com",
        "contact3phone": "214-923-8772",
        "bstime": "09:30:00",
        "lstime": "10:30:00",
        "pmtime": "00:00:00",
        "midwkday": "Wednesday",
        "midwktime": "19:00:00",
        "streetview_angle": "536",
        "dist": "25.09",
        "updated": "2021-05-03 17:55:14",
        "latitude": "33.0822799060627",
        "longitude": "-96.110625390213"
    },
    {
        "id": "6761",
        "address_long": "10000 South Wesley, Greenville, Texas, 75401, USA",
        "name": "Hillside",
        "address": "10000 South Wesley",
        "city": "Greenville",
        "province": "Texas",
        "postal_code": "75401",
        "country": "USA",
        "phone": "903-454-9324",
        "url": "",
        "email": "",
        "mail": "box 9213",
        "assemblydetails": "",
        "photo": "",
        "contact1name": "Kenneth Hale",
        "contact1email": "",
        "contact1phone": "903-454-1182",
        "contact2name": "Ray Miller",
        "contact2email": "",
        "contact2phone": "903-450-7191",
        "contact3name": "Clint Stuart",
        "contact3email": "",
        "contact3phone": "903-454-3304",
        "bstime": "09:30:00",
        "lstime": "10:30:00",
        "pmtime": "00:00:00",
        "midwkday": "Wednesday",
        "midwktime": "19:30:00",
        "streetview_angle": "285",
        "dist": "25.11",
        "updated": "2021-02-18 11:56:16",
        "latitude": "33.070335",
        "longitude": "-96.109946"
    },
    {
        "id": "6762",
        "address_long": "3301 Ridgecrest Rd, Greenville, Texas, 75403, USA",
        "name": "Southside",
        "address": "3301 Ridgecrest Rd",
        "city": "Greenville",
        "province": "Texas",
        "postal_code": "75403",
        "country": "USA",
        "phone": "903-455-0662",
        "url": "",
        "email": "",
        "mail": "Box 242",
        "assemblydetails": "",
        "photo": "id_6762",
        "contact1name": "KEITH LAMBERT",
        "contact1email": "",
        "contact1phone": "903-744-3466",
        "contact2name": "",
        "contact2email": "",
        "contact2phone": "",
        "contact3name": "",
        "contact3email": "",
        "contact3phone": "",
        "bstime": "09:30:00",
        "lstime": "10:20:00",
        "pmtime": "17:00:00",
        "midwkday": "Wednesday",
        "midwktime": "18:30:00",
        "streetview_angle": "188",
        "dist": "25.44",
        "updated": "2015-04-25 11:40:42",
        "latitude": "33.120534027216",
        "longitude": "-96.1172121763229"
    },
    {
        "id": "6759",
        "address_long": "400 West O'Hara St, Grand Saline, Texas, 75140, USA",
        "name": "Grand Saline",
        "address": "400 West O'Hara St",
        "city": "Grand Saline",
        "province": "Texas",
        "postal_code": "75140",
        "country": "USA",
        "phone": "903-962-4902",
        "url": "www.grandsalinechurchofchrist.com",
        "email": "",
        "mail": "Box 82",
        "assemblydetails": "Take Oleander heading North of US Hwy 80 go two blocks and then turn right onto O'Hara Street",
        "photo": "",
        "contact1name": "Kyle White",
        "contact1email": "",
        "contact1phone": "903-445-6030",
        "contact2name": "Rex White",
        "contact2email": "rexwhite.gs@gmail.com",
        "contact2phone": "903-962-3455 ",
        "contact3name": "Danny Milam",
        "contact3email": "draymilam@aol.com",
        "contact3phone": "903-962-6146",
        "bstime": "10:00:00",
        "lstime": "10:50:00",
        "pmtime": "17:00:00",
        "midwkday": "Wednesday",
        "midwktime": "19:00:00",
        "streetview_angle": "-1",
        "dist": "29.61",
        "updated": "2021-04-21 14:30:51",
        "latitude": "32.67683",
        "longitude": "-95.712886"
    },
    {
        "id": "6833",
        "address_long": "326 W North Loop 564, Mineola, Texas, 75773, USA",
        "name": "North Loop",
        "address": "326 W North Loop 564",
        "city": "Mineola",
        "province": "Texas",
        "postal_code": "75773",
        "country": "USA",
        "phone": "903-569-3117",
        "url": "",
        "email": "",
        "mail": "Box 963",
        "assemblydetails": "between Hwy. 69 and Hwy. 37",
        "photo": "",
        "contact1name": "Richard C. Sims, Jr.",
        "contact1email": "richndebbie@juno.com",
        "contact1phone": "903-941-1150",
        "contact2name": "Loran Porter",
        "contact2email": "docz20@aol.com",
        "contact2phone": "903-638-6558",
        "contact3name": "",
        "contact3email": "",
        "contact3phone": "",
        "bstime": "10:00:00",
        "lstime": "11:00:00",
        "pmtime": "18:00:00",
        "midwkday": "Wednesday",
        "midwktime": "19:00:00",
        "streetview_angle": "340",
        "dist": "30.79",
        "updated": "2019-08-27 09:40:50",
        "latitude": "32.6882746006422",
        "longitude": "-95.4876494407654"
    },
    {
        "id": "6800",
        "address_long": "Hwy 1519, Leesburg, Texas, 75451, USA",
        "name": "Union",
        "address": "Hwy 1519",
        "city": "Leesburg",
        "province": "Texas",
        "postal_code": "75451",
        "country": "USA",
        "phone": "903-856-7158",
        "url": "",
        "email": "",
        "mail": "Box 82",
        "assemblydetails": "",
        "photo": "",
        "contact1name": "",
        "contact1email": "",
        "contact1phone": "",
        "contact2name": "Richard Fox",
        "contact2email": "",
        "contact2phone": "",
        "contact3name": "",
        "contact3email": "",
        "contact3phone": "",
        "bstime": "00:00:00",
        "lstime": "00:00:00",
        "pmtime": "00:00:00",
        "midwkday": "",
        "midwktime": "00:00:00",
        "streetview_angle": "-2",
        "dist": "35.09",
        "updated": "0000-00-00 00:00:00",
        "latitude": "32.98837",
        "longitude": "-95.087456"
    },
    {
        "id": "6860",
        "address_long": "700 S. Greer Blvd, Pittsburg, Texas, 75686, USA",
        "name": "",
        "address": "700 S. Greer Blvd",
        "city": "Pittsburg",
        "province": "Texas",
        "postal_code": "75686",
        "country": "USA",
        "phone": "903-856-3530",
        "url": "",
        "email": "",
        "mail": "Box 414",
        "assemblydetails": "",
        "photo": "",
        "contact1name": "",
        "contact1email": "",
        "contact1phone": "",
        "contact2name": "",
        "contact2email": "",
        "contact2phone": "",
        "contact3name": "",
        "contact3email": "",
        "contact3phone": "",
        "bstime": "00:00:00",
        "lstime": "00:00:00",
        "pmtime": "00:00:00",
        "midwkday": "",
        "midwktime": "00:00:00",
        "streetview_angle": "86",
        "dist": "42.01",
        "updated": "0000-00-00 00:00:00",
        "latitude": "32.985200500870995",
        "longitude": "-94.9659436941147"
    },
    {
        "id": "6707",
        "address_long": "120 Highway 64 West, Cooper, Texas, 75432, USA",
        "name": "Cooper",
        "address": "120 Highway 64 West",
        "city": "Cooper",
        "province": "Texas",
        "postal_code": "75432",
        "country": "USA",
        "phone": "903-395-4278",
        "url": "www.cooperchurchofchrist.com",
        "email": "",
        "mail": "Rt 2, Box 207 A-1",
        "assemblydetails": "Next to Dairy Queen",
        "photo": "id_6707",
        "contact1name": "Noel S. Bailey",
        "contact1email": "noelbailey100@yahoo.com",
        "contact1phone": "903-439-8099- cell",
        "contact2name": "",
        "contact2email": "",
        "contact2phone": "",
        "contact3name": "",
        "contact3email": "",
        "contact3phone": "",
        "bstime": "09:30:00",
        "lstime": "10:20:00",
        "pmtime": "17:00:00",
        "midwkday": "Wednesday",
        "midwktime": "19:00:00",
        "streetview_angle": "60",
        "dist": "16.31",
        "updated": "2021-06-11 08:10:29",
        "latitude": "33.3757672737463",
        "longitude": "-95.70108890533449"
    },
    {
        "id": "6729",
        "address_long": "6617 Farm Road 69 North, Dike, Texas, 75437, USA",
        "name": "",
        "address": "6617 Farm Road 69 North",
        "city": "Dike",
        "province": "Texas",
        "postal_code": "75437",
        "country": "USA",
        "phone": "903-945-3300",
        "url": "",
        "email": "",
        "mail": "Box 2",
        "assemblydetails": "",
        "photo": "",
        "contact1name": "",
        "contact1email": "",
        "contact1phone": "",
        "contact2name": "",
        "contact2email": "",
        "contact2phone": "",
        "contact3name": "",
        "contact3email": "",
        "contact3phone": "",
        "bstime": "00:00:00",
        "lstime": "00:00:00",
        "pmtime": "00:00:00",
        "midwkday": "",
        "midwktime": "00:00:00",
        "streetview_angle": "285",
        "dist": "28.28",
        "updated": "0000-00-00 00:00:00",
        "latitude": "33.235538",
        "longitude": "-95.482221"
    },
    {
        "id": "8049",
        "address_long": "101 S Cedar St, Ector, Texas, 75439, USA",
        "name": "Ector",
        "address": "101 S Cedar St",
        "city": "Ector",
        "province": "Texas",
        "postal_code": "75439",
        "country": "USA",
        "phone": "",
        "url": "www.ectorchurch.com",
        "email": "",
        "mail": "",
        "assemblydetails": "Corner of Cedar and Hwy 56 in Ector",
        "photo": "",
        "contact1name": "Scott Ellis",
        "contact1email": "",
        "contact1phone": "",
        "contact2name": "",
        "contact2email": "",
        "contact2phone": "",
        "contact3name": "",
        "contact3email": "",
        "contact3phone": "",
        "bstime": "09:00:00",
        "lstime": "09:45:00",
        "pmtime": "17:00:00",
        "midwkday": "Wednesday",
        "midwktime": "19:00:00",
        "streetview_angle": "89",
        "dist": "34.10",
        "updated": "2017-07-26 10:55:15",
        "latitude": "33.575711256051484",
        "longitude": "-96.26907478211598"
    },
    {
        "id": "6906",
        "address_long": "1208 S. Davis St., Sulphur Springs, Texas, 75483, USA",
        "name": "Southside",
        "address": "1208 S. Davis St.",
        "city": "Sulphur Springs",
        "province": "Texas",
        "postal_code": "75483",
        "country": "USA",
        "phone": "",
        "url": "www.churchofchristss.com",
        "email": "",
        "mail": "Box 271",
        "assemblydetails": "",
        "photo": "",
        "contact1name": "Shane Carrington",
        "contact1email": "bshanec@mac.com",
        "contact1phone": "903-439-4639",
        "contact2name": "George Walker",
        "contact2email": "george@ghwc.net",
        "contact2phone": "903-885-5197",
        "contact3name": "Bob Parker",
        "contact3email": "",
        "contact3phone": "903-885-2670",
        "bstime": "09:30:00",
        "lstime": "10:30:00",
        "pmtime": "17:00:00",
        "midwkday": "Wednesday",
        "midwktime": "19:00:00",
        "streetview_angle": "116",
        "dist": "34.27",
        "updated": "2021-05-04 14:27:52",
        "latitude": "33.1188324101244",
        "longitude": "-95.60239393862304"
    },
    {
        "id": "6762",
        "address_long": "3301 Ridgecrest Rd, Greenville, Texas, 75403, USA",
        "name": "Southside",
        "address": "3301 Ridgecrest Rd",
        "city": "Greenville",
        "province": "Texas",
        "postal_code": "75403",
        "country": "USA",
        "phone": "903-455-0662",
        "url": "",
        "email": "",
        "mail": "Box 242",
        "assemblydetails": "",
        "photo": "id_6762",
        "contact1name": "KEITH LAMBERT",
        "contact1email": "",
        "contact1phone": "903-744-3466",
        "contact2name": "",
        "contact2email": "",
        "contact2phone": "",
        "contact3name": "",
        "contact3email": "",
        "contact3phone": "",
        "bstime": "09:30:00",
        "lstime": "10:20:00",
        "pmtime": "17:00:00",
        "midwkday": "Wednesday",
        "midwktime": "18:30:00",
        "streetview_angle": "188",
        "dist": "42.31",
        "updated": "2015-04-25 11:40:42",
        "latitude": "33.120534027216",
        "longitude": "-96.1172121763229"
    },
    {
        "id": "7858",
        "address_long": "2801 Rodeo Drive, Greenville, TX, 75402, USA",
        "name": "Greenville",
        "address": "2801 Rodeo Drive",
        "city": "Greenville",
        "province": "TX",
        "postal_code": "75402",
        "country": "USA",
        "phone": "",
        "url": "www.gospelnotes.info/assembly-times-directions.html",
        "email": "",
        "mail": "Box 9348, Greenville, TX 75404",
        "assemblydetails": "From I-30, exit Hwy 34 (Wesley St);  Go South on Hwy 34 for approximately 0.9 mile;  Turn right onto Rodeo Drive;  Building is at far end of road on left.",
        "photo": "",
        "contact1name": "Tracy Pierce",
        "contact1email": "tracypierce112@yahoo.com",
        "contact1phone": "(903) 268-8656",
        "contact2name": "Mike Miller",
        "contact2email": "mtmiller94@hotmail.com",
        "contact2phone": "(903) 855-9885",
        "contact3name": "Michael Wright",
        "contact3email": "TXWrightCrew@gmail.com",
        "contact3phone": "214-923-8772",
        "bstime": "09:30:00",
        "lstime": "10:30:00",
        "pmtime": "00:00:00",
        "midwkday": "Wednesday",
        "midwktime": "19:00:00",
        "streetview_angle": "536",
        "dist": "44.24",
        "updated": "2021-05-03 17:55:14",
        "latitude": "33.0822799060627",
        "longitude": "-96.110625390213"
    },
    {
        "id": "6761",
        "address_long": "10000 South Wesley, Greenville, Texas, 75401, USA",
        "name": "Hillside",
        "address": "10000 South Wesley",
        "city": "Greenville",
        "province": "Texas",
        "postal_code": "75401",
        "country": "USA",
        "phone": "903-454-9324",
        "url": "",
        "email": "",
        "mail": "box 9213",
        "assemblydetails": "",
        "photo": "",
        "contact1name": "Kenneth Hale",
        "contact1email": "",
        "contact1phone": "903-454-1182",
        "contact2name": "Ray Miller",
        "contact2email": "",
        "contact2phone": "903-450-7191",
        "contact3name": "Clint Stuart",
        "contact3email": "",
        "contact3phone": "903-454-3304",
        "bstime": "09:30:00",
        "lstime": "10:30:00",
        "pmtime": "00:00:00",
        "midwkday": "Wednesday",
        "midwktime": "19:30:00",
        "streetview_angle": "285",
        "dist": "44.90",
        "updated": "2021-02-18 11:56:16",
        "latitude": "33.070335",
        "longitude": "-96.109946"
    },
    {
        "id": "6440",
        "address_long": "4th & Turner Street, Haileyville, Oklahoma, 74546, USA",
        "name": "",
        "address": "4th & Turner Street",
        "city": "Haileyville",
        "province": "Oklahoma",
        "postal_code": "74546",
        "country": "USA",
        "phone": "918-426-4153",
        "url": "",
        "email": "",
        "mail": "Box 300",
        "assemblydetails": "",
        "photo": "",
        "contact1name": "Arnold Johnson",
        "contact1email": "",
        "contact1phone": "918-426-4153",
        "contact2name": "Allen Ray",
        "contact2email": "",
        "contact2phone": "918-297-2966",
        "contact3name": "",
        "contact3email": "",
        "contact3phone": "",
        "bstime": "00:00:00",
        "lstime": "00:00:00",
        "pmtime": "00:00:00",
        "midwkday": "",
        "midwktime": "00:00:00",
        "streetview_angle": "-1",
        "dist": "16.67",
        "updated": "2015-07-07 11:31:55",
        "latitude": "34.8504288",
        "longitude": "-95.5751098"
    },
    {
        "id": "6444",
        "address_long": "2120 North A Street, McAlester, Oklahoma, 74501, USA",
        "name": "",
        "address": "2120 North A Street",
        "city": "McAlester",
        "province": "Oklahoma",
        "postal_code": "74501",
        "country": "USA",
        "phone": "918-423-3445",
        "url": "",
        "email": "",
        "mail": "Box 152",
        "assemblydetails": "",
        "photo": "",
        "contact1name": "",
        "contact1email": "",
        "contact1phone": "",
        "contact2name": "Gerald Heggie",
        "contact2email": "",
        "contact2phone": "918-426-6358",
        "contact3name": "",
        "contact3email": "",
        "contact3phone": "",
        "bstime": "00:00:00",
        "lstime": "00:00:00",
        "pmtime": "00:00:00",
        "midwkday": "",
        "midwktime": "00:00:00",
        "streetview_angle": "-1",
        "dist": "23.09",
        "updated": "0000-00-00 00:00:00",
        "latitude": "34.9503449941565",
        "longitude": "-95.767822265625"
    },
    {
        "id": "6458",
        "address_long": "306 SW 10th, Wilburton, Oklahoma, 74578, USA",
        "name": "Cedar Heights",
        "address": "306 SW 10th",
        "city": "Wilburton",
        "province": "Oklahoma",
        "postal_code": "74578",
        "country": "USA",
        "phone": "",
        "url": "",
        "email": "",
        "mail": "228 NE Lutie 5",
        "assemblydetails": "",
        "photo": "",
        "contact1name": "Darren Harber",
        "contact1email": "ddharber@yahoo.com",
        "contact1phone": "918-465-0216",
        "contact2name": "Annette Harber",
        "contact2email": "aiharber@yahoo.com",
        "contact2phone": "918-465-0216",
        "contact3name": "",
        "contact3email": "",
        "contact3phone": "",
        "bstime": "00:00:00",
        "lstime": "10:30:00",
        "pmtime": "18:00:00",
        "midwkday": "Wednesday",
        "midwktime": "19:00:00",
        "streetview_angle": "120",
        "dist": "28.54",
        "updated": "2010-01-23 11:41:30",
        "latitude": "34.917339",
        "longitude": "-95.32304"
    },
    {
        "id": "6444",
        "address_long": "2120 North A Street, McAlester, Oklahoma, 74501, USA",
        "name": "",
        "address": "2120 North A Street",
        "city": "McAlester",
        "province": "Oklahoma",
        "postal_code": "74501",
        "country": "USA",
        "phone": "918-423-3445",
        "url": "",
        "email": "",
        "mail": "Box 152",
        "assemblydetails": "",
        "photo": "",
        "contact1name": "",
        "contact1email": "",
        "contact1phone": "",
        "contact2name": "Gerald Heggie",
        "contact2email": "",
        "contact2phone": "918-426-6358",
        "contact3name": "",
        "contact3email": "",
        "contact3phone": "",
        "bstime": "00:00:00",
        "lstime": "00:00:00",
        "pmtime": "00:00:00",
        "midwkday": "",
        "midwktime": "00:00:00",
        "streetview_angle": "-1",
        "dist": "13.46",
        "updated": "0000-00-00 00:00:00",
        "latitude": "34.9503449941565",
        "longitude": "-95.767822265625"
    },
    {
        "id": "6440",
        "address_long": "4th & Turner Street, Haileyville, Oklahoma, 74546, USA",
        "name": "",
        "address": "4th & Turner Street",
        "city": "Haileyville",
        "province": "Oklahoma",
        "postal_code": "74546",
        "country": "USA",
        "phone": "918-426-4153",
        "url": "",
        "email": "",
        "mail": "Box 300",
        "assemblydetails": "",
        "photo": "",
        "contact1name": "Arnold Johnson",
        "contact1email": "",
        "contact1phone": "918-426-4153",
        "contact2name": "Allen Ray",
        "contact2email": "",
        "contact2phone": "918-297-2966",
        "contact3name": "",
        "contact3email": "",
        "contact3phone": "",
        "bstime": "00:00:00",
        "lstime": "00:00:00",
        "pmtime": "00:00:00",
        "midwkday": "",
        "midwktime": "00:00:00",
        "streetview_angle": "-1",
        "dist": "20.21",
        "updated": "2015-07-07 11:31:55",
        "latitude": "34.8504288",
        "longitude": "-95.5751098"
    },
    {
        "id": "6458",
        "address_long": "306 SW 10th, Wilburton, Oklahoma, 74578, USA",
        "name": "Cedar Heights",
        "address": "306 SW 10th",
        "city": "Wilburton",
        "province": "Oklahoma",
        "postal_code": "74578",
        "country": "USA",
        "phone": "",
        "url": "",
        "email": "",
        "mail": "228 NE Lutie 5",
        "assemblydetails": "",
        "photo": "",
        "contact1name": "Darren Harber",
        "contact1email": "ddharber@yahoo.com",
        "contact1phone": "918-465-0216",
        "contact2name": "Annette Harber",
        "contact2email": "aiharber@yahoo.com",
        "contact2phone": "918-465-0216",
        "contact3name": "",
        "contact3email": "",
        "contact3phone": "",
        "bstime": "00:00:00",
        "lstime": "10:30:00",
        "pmtime": "18:00:00",
        "midwkday": "Wednesday",
        "midwktime": "19:00:00",
        "streetview_angle": "120",
        "dist": "24.89",
        "updated": "2010-01-23 11:41:30",
        "latitude": "34.917339",
        "longitude": "-95.32304"
    },
    {
        "id": "6447",
        "address_long": "2701 S. Cherokee St, Muskogee, Oklahoma, 74401, USA",
        "name": "South Side",
        "address": "2701 S. Cherokee St",
        "city": "Muskogee",
        "province": "Oklahoma",
        "postal_code": "74401",
        "country": "USA",
        "phone": "918-687-7424",
        "url": "",
        "email": "",
        "mail": "Box 921",
        "assemblydetails": "",
        "photo": "",
        "contact1name": "",
        "contact1email": "",
        "contact1phone": "",
        "contact2name": "Wesley Gilbert",
        "contact2email": "",
        "contact2phone": "",
        "contact3name": "",
        "contact3email": "",
        "contact3phone": "",
        "bstime": "00:00:00",
        "lstime": "00:00:00",
        "pmtime": "00:00:00",
        "midwkday": "",
        "midwktime": "00:00:00",
        "streetview_angle": "324",
        "dist": "44.03",
        "updated": "0000-00-00 00:00:00",
        "latitude": "35.7193833847371",
        "longitude": "-95.3763860464096"
    },
    {
        "id": "6447",
        "address_long": "2701 S. Cherokee St, Muskogee, Oklahoma, 74401, USA",
        "name": "South Side",
        "address": "2701 S. Cherokee St",
        "city": "Muskogee",
        "province": "Oklahoma",
        "postal_code": "74401",
        "country": "USA",
        "phone": "918-687-7424",
        "url": "",
        "email": "",
        "mail": "Box 921",
        "assemblydetails": "",
        "photo": "",
        "contact1name": "",
        "contact1email": "",
        "contact1phone": "",
        "contact2name": "Wesley Gilbert",
        "contact2email": "",
        "contact2phone": "",
        "contact3name": "",
        "contact3email": "",
        "contact3phone": "",
        "bstime": "00:00:00",
        "lstime": "00:00:00",
        "pmtime": "00:00:00",
        "midwkday": "",
        "midwktime": "00:00:00",
        "streetview_angle": "324",
        "dist": "17.83",
        "updated": "0000-00-00 00:00:00",
        "latitude": "35.7193833847371",
        "longitude": "-95.3763860464096"
    },
    {
        "id": "8037",
        "address_long": "9119 E. 61st St., Tulsa, OK, 74145, USA",
        "name": "Woodland Hills",
        "address": "9119 E. 61st St.",
        "city": "Tulsa",
        "province": "OK",
        "postal_code": "74145",
        "country": "USA",
        "phone": "918-252-1220",
        "url": "www.woodlandhillscoc.com",
        "email": "",
        "mail": "",
        "assemblydetails": "Near 61st and Mingo in Tulsa. Near Rt. 169.",
        "photo": "id_8037",
        "contact1name": "Greg Geren",
        "contact1email": "",
        "contact1phone": "918-850-4640",
        "contact2name": "Andy Parsons",
        "contact2email": "andrewparsons@wilbros.com",
        "contact2phone": "918-272-7135",
        "contact3name": "",
        "contact3email": "",
        "contact3phone": "",
        "bstime": "09:30:00",
        "lstime": "10:30:00",
        "pmtime": "17:00:00",
        "midwkday": "Wednesday",
        "midwktime": "19:00:00",
        "streetview_angle": "13",
        "dist": "32.21",
        "updated": "2020-04-13 17:42:04",
        "latitude": "36.0758006",
        "longitude": "-95.87426119999998"
    },
    {
        "id": "7974",
        "address_long": "1303 W Keetoowah St., Tahlequah, Oklahoma, 74464, USA",
        "name": "Central",
        "address": "1303 W Keetoowah St.",
        "city": "Tahlequah",
        "province": "Oklahoma",
        "postal_code": "74464",
        "country": "USA",
        "phone": "",
        "url": "",
        "email": "",
        "mail": "",
        "assemblydetails": "1/4 mile east of OK51",
        "photo": "",
        "contact1name": "Steven Burdine",
        "contact1email": "stevenb6462@gmail.com",
        "contact1phone": "918-239-4128",
        "contact2name": "Brian Strong",
        "contact2email": "stevenb6462@gmail.com",
        "contact2phone": "918-931-8601",
        "contact3name": "",
        "contact3email": "",
        "contact3phone": "",
        "bstime": "10:00:00",
        "lstime": "10:45:00",
        "pmtime": "",
        "midwkday": "Wednesday",
        "midwktime": "18:00:00",
        "streetview_angle": "0",
        "dist": "42.94",
        "updated": "2021-06-02 11:22:09",
        "latitude": "35.915261",
        "longitude": "-94.9920705"
    },
    {
        "id": "6456",
        "address_long": "15640 E. 76th Street North, Owasso, Oklahoma, 74055, USA",
        "name": "Stone Canyon",
        "address": "15640 E. 76th Street North",
        "city": "Owasso",
        "province": "Oklahoma",
        "postal_code": "74055",
        "country": "USA",
        "phone": "918-609-8650",
        "url": "",
        "email": "",
        "mail": "",
        "assemblydetails": "15640 E. 76th Street North",
        "photo": "",
        "contact1name": "Frank Plato",
        "contact1email": "fwplato@yahoo.com",
        "contact1phone": "918-855-1640",
        "contact2name": "Colton McDaniel",
        "contact2email": "mcdanielbc3@gmail.com",
        "contact2phone": "918-951-5900",
        "contact3name": "Mack Baughn",
        "contact3email": "",
        "contact3phone": "918-720-9476",
        "bstime": "09:00:00",
        "lstime": "10:00:00",
        "pmtime": "17:00:00",
        "midwkday": "Wednesday",
        "midwktime": "19:00:00",
        "streetview_angle": "277",
        "dist": "43.81",
        "updated": "2021-01-07 22:13:26",
        "latitude": "36.2640278",
        "longitude": "-95.8004155"
    },
    {
        "id": "6434",
        "address_long": "23188 South Highway 88, Claremore, Oklahoma, 74019, USA",
        "name": "South Highway 88",
        "address": "23188 South Highway 88",
        "city": "Claremore",
        "province": "Oklahoma",
        "postal_code": "74019",
        "country": "USA",
        "phone": "918-341-1205",
        "url": "",
        "email": "",
        "mail": "",
        "assemblydetails": "3 miles southeast of Claremore on S. Hwy. 88. ",
        "photo": "",
        "contact1name": "Russell Judd",
        "contact1email": "russelldjudd@gmail.com",
        "contact1phone": "918-341-1205, 918-857-3733",
        "contact2name": "David Hill",
        "contact2email": "carpenter_master@yahoo.com",
        "contact2phone": "918-857-5841",
        "contact3name": "",
        "contact3email": "",
        "contact3phone": "",
        "bstime": "09:30:00",
        "lstime": "10:30:00",
        "pmtime": "00:00:00",
        "midwkday": "Wednesday",
        "midwktime": "19:00:00",
        "streetview_angle": "252",
        "dist": "44.46",
        "updated": "2021-06-30 12:05:39",
        "latitude": "36.276646",
        "longitude": "-95.582249"
    },
    {
        "id": "6444",
        "address_long": "2120 North A Street, McAlester, Oklahoma, 74501, USA",
        "name": "",
        "address": "2120 North A Street",
        "city": "McAlester",
        "province": "Oklahoma",
        "postal_code": "74501",
        "country": "USA",
        "phone": "918-423-3445",
        "url": "",
        "email": "",
        "mail": "Box 152",
        "assemblydetails": "",
        "photo": "",
        "contact1name": "",
        "contact1email": "",
        "contact1phone": "",
        "contact2name": "Gerald Heggie",
        "contact2email": "",
        "contact2phone": "918-426-6358",
        "contact3name": "",
        "contact3email": "",
        "contact3phone": "",
        "bstime": "00:00:00",
        "lstime": "00:00:00",
        "pmtime": "00:00:00",
        "midwkday": "",
        "midwktime": "00:00:00",
        "streetview_angle": "-1",
        "dist": "47.71",
        "updated": "0000-00-00 00:00:00",
        "latitude": "34.9503449941565",
        "longitude": "-95.767822265625"
    },
    {
        "id": "6434",
        "address_long": "23188 South Highway 88, Claremore, Oklahoma, 74019, USA",
        "name": "South Highway 88",
        "address": "23188 South Highway 88",
        "city": "Claremore",
        "province": "Oklahoma",
        "postal_code": "74019",
        "country": "USA",
        "phone": "918-341-1205",
        "url": "",
        "email": "",
        "mail": "",
        "assemblydetails": "3 miles southeast of Claremore on S. Hwy. 88. ",
        "photo": "",
        "contact1name": "Russell Judd",
        "contact1email": "russelldjudd@gmail.com",
        "contact1phone": "918-341-1205, 918-857-3733",
        "contact2name": "David Hill",
        "contact2email": "carpenter_master@yahoo.com",
        "contact2phone": "918-857-5841",
        "contact3name": "",
        "contact3email": "",
        "contact3phone": "",
        "bstime": "09:30:00",
        "lstime": "10:30:00",
        "pmtime": "00:00:00",
        "midwkday": "Wednesday",
        "midwktime": "19:00:00",
        "streetview_angle": "252",
        "dist": "10.60",
        "updated": "2021-06-30 12:05:39",
        "latitude": "36.276646",
        "longitude": "-95.582249"
    },
    {
        "id": "6456",
        "address_long": "15640 E. 76th Street North, Owasso, Oklahoma, 74055, USA",
        "name": "Stone Canyon",
        "address": "15640 E. 76th Street North",
        "city": "Owasso",
        "province": "Oklahoma",
        "postal_code": "74055",
        "country": "USA",
        "phone": "918-609-8650",
        "url": "",
        "email": "",
        "mail": "",
        "assemblydetails": "15640 E. 76th Street North",
        "photo": "",
        "contact1name": "Frank Plato",
        "contact1email": "fwplato@yahoo.com",
        "contact1phone": "918-855-1640",
        "contact2name": "Colton McDaniel",
        "contact2email": "mcdanielbc3@gmail.com",
        "contact2phone": "918-951-5900",
        "contact3name": "Mack Baughn",
        "contact3email": "",
        "contact3phone": "918-720-9476",
        "bstime": "09:00:00",
        "lstime": "10:00:00",
        "pmtime": "17:00:00",
        "midwkday": "Wednesday",
        "midwktime": "19:00:00",
        "streetview_angle": "277",
        "dist": "10.75",
        "updated": "2021-01-07 22:13:26",
        "latitude": "36.2640278",
        "longitude": "-95.8004155"
    },
    {
        "id": "8037",
        "address_long": "9119 E. 61st St., Tulsa, OK, 74145, USA",
        "name": "Woodland Hills",
        "address": "9119 E. 61st St.",
        "city": "Tulsa",
        "province": "OK",
        "postal_code": "74145",
        "country": "USA",
        "phone": "918-252-1220",
        "url": "www.woodlandhillscoc.com",
        "email": "",
        "mail": "",
        "assemblydetails": "Near 61st and Mingo in Tulsa. Near Rt. 169.",
        "photo": "id_8037",
        "contact1name": "Greg Geren",
        "contact1email": "",
        "contact1phone": "918-850-4640",
        "contact2name": "Andy Parsons",
        "contact2email": "andrewparsons@wilbros.com",
        "contact2phone": "918-272-7135",
        "contact3name": "",
        "contact3email": "",
        "contact3phone": "",
        "bstime": "09:30:00",
        "lstime": "10:30:00",
        "pmtime": "17:00:00",
        "midwkday": "Wednesday",
        "midwktime": "19:00:00",
        "streetview_angle": "13",
        "dist": "11.93",
        "updated": "2020-04-13 17:42:04",
        "latitude": "36.0758006",
        "longitude": "-95.87426119999998"
    },
    {
        "id": "6447",
        "address_long": "2701 S. Cherokee St, Muskogee, Oklahoma, 74401, USA",
        "name": "South Side",
        "address": "2701 S. Cherokee St",
        "city": "Muskogee",
        "province": "Oklahoma",
        "postal_code": "74401",
        "country": "USA",
        "phone": "918-687-7424",
        "url": "",
        "email": "",
        "mail": "Box 921",
        "assemblydetails": "",
        "photo": "",
        "contact1name": "",
        "contact1email": "",
        "contact1phone": "",
        "contact2name": "Wesley Gilbert",
        "contact2email": "",
        "contact2phone": "",
        "contact3name": "",
        "contact3email": "",
        "contact3phone": "",
        "bstime": "00:00:00",
        "lstime": "00:00:00",
        "pmtime": "00:00:00",
        "midwkday": "",
        "midwktime": "00:00:00",
        "streetview_angle": "324",
        "dist": "33.81",
        "updated": "0000-00-00 00:00:00",
        "latitude": "35.7193833847371",
        "longitude": "-95.3763860464096"
    },
    {
        "id": "7974",
        "address_long": "1303 W Keetoowah St., Tahlequah, Oklahoma, 74464, USA",
        "name": "Central",
        "address": "1303 W Keetoowah St.",
        "city": "Tahlequah",
        "province": "Oklahoma",
        "postal_code": "74464",
        "country": "USA",
        "phone": "",
        "url": "",
        "email": "",
        "mail": "",
        "assemblydetails": "1/4 mile east of OK51",
        "photo": "",
        "contact1name": "Steven Burdine",
        "contact1email": "stevenb6462@gmail.com",
        "contact1phone": "918-239-4128",
        "contact2name": "Brian Strong",
        "contact2email": "stevenb6462@gmail.com",
        "contact2phone": "918-931-8601",
        "contact3name": "",
        "contact3email": "",
        "contact3phone": "",
        "bstime": "10:00:00",
        "lstime": "10:45:00",
        "pmtime": "",
        "midwkday": "Wednesday",
        "midwktime": "18:00:00",
        "streetview_angle": "0",
        "dist": "41.42",
        "updated": "2021-06-02 11:22:09",
        "latitude": "35.915261",
        "longitude": "-94.9920705"
    },
    {
        "id": "8113",
        "address_long": "438356 E. Hwy 60, Vinita, Oklahoma, 74301, USA",
        "name": "",
        "address": "438356 E. Hwy 60",
        "city": "Vinita",
        "province": "Oklahoma",
        "postal_code": "74301",
        "country": "USA",
        "phone": "918-256-6319",
        "url": "www.vinitachurchofchrist.com",
        "email": "",
        "mail": "Box 123",
        "assemblydetails": "2 1/2 miles West of Vinita, Oklahoma on US Hwy 60",
        "photo": "",
        "contact1name": "Bob Hampton",
        "contact1email": "vinitachurchofchrist@yahoo.com",
        "contact1phone": "918-256-6319",
        "contact2name": "Frank Haltom",
        "contact2email": "vinitachurchofchrist@yahoo.com",
        "contact2phone": "918-244-1999",
        "contact3name": "",
        "contact3email": "",
        "contact3phone": "",
        "bstime": "09:45:00",
        "lstime": "10:45:00",
        "pmtime": "14:00:00",
        "midwkday": "Wednesday",
        "midwktime": "19:00:00",
        "streetview_angle": "0",
        "dist": "42.96",
        "updated": "2021-05-25 05:54:58",
        "latitude": "36.62750517138731",
        "longitude": "-95.19148430422973"
    },
    {
        "id": "6434",
        "address_long": "23188 South Highway 88, Claremore, Oklahoma, 74019, USA",
        "name": "South Highway 88",
        "address": "23188 South Highway 88",
        "city": "Claremore",
        "province": "Oklahoma",
        "postal_code": "74019",
        "country": "USA",
        "phone": "918-341-1205",
        "url": "",
        "email": "",
        "mail": "",
        "assemblydetails": "3 miles southeast of Claremore on S. Hwy. 88. ",
        "photo": "",
        "contact1name": "Russell Judd",
        "contact1email": "russelldjudd@gmail.com",
        "contact1phone": "918-341-1205, 918-857-3733",
        "contact2name": "David Hill",
        "contact2email": "carpenter_master@yahoo.com",
        "contact2phone": "918-857-5841",
        "contact3name": "",
        "contact3email": "",
        "contact3phone": "",
        "bstime": "09:30:00",
        "lstime": "10:30:00",
        "pmtime": "00:00:00",
        "midwkday": "Wednesday",
        "midwktime": "19:00:00",
        "streetview_angle": "252",
        "dist": "26.35",
        "updated": "2021-06-30 12:05:39",
        "latitude": "36.276646",
        "longitude": "-95.582249"
    },
    {
        "id": "8113",
        "address_long": "438356 E. Hwy 60, Vinita, Oklahoma, 74301, USA",
        "name": "",
        "address": "438356 E. Hwy 60",
        "city": "Vinita",
        "province": "Oklahoma",
        "postal_code": "74301",
        "country": "USA",
        "phone": "918-256-6319",
        "url": "www.vinitachurchofchrist.com",
        "email": "",
        "mail": "Box 123",
        "assemblydetails": "2 1/2 miles West of Vinita, Oklahoma on US Hwy 60",
        "photo": "",
        "contact1name": "Bob Hampton",
        "contact1email": "vinitachurchofchrist@yahoo.com",
        "contact1phone": "918-256-6319",
        "contact2name": "Frank Haltom",
        "contact2email": "vinitachurchofchrist@yahoo.com",
        "contact2phone": "918-244-1999",
        "contact3name": "",
        "contact3email": "",
        "contact3phone": "",
        "bstime": "09:45:00",
        "lstime": "10:45:00",
        "pmtime": "14:00:00",
        "midwkday": "Wednesday",
        "midwktime": "19:00:00",
        "streetview_angle": "0",
        "dist": "26.99",
        "updated": "2021-05-25 05:54:58",
        "latitude": "36.62750517138731",
        "longitude": "-95.19148430422973"
    },
    {
        "id": "6456",
        "address_long": "15640 E. 76th Street North, Owasso, Oklahoma, 74055, USA",
        "name": "Stone Canyon",
        "address": "15640 E. 76th Street North",
        "city": "Owasso",
        "province": "Oklahoma",
        "postal_code": "74055",
        "country": "USA",
        "phone": "918-609-8650",
        "url": "",
        "email": "",
        "mail": "",
        "assemblydetails": "15640 E. 76th Street North",
        "photo": "",
        "contact1name": "Frank Plato",
        "contact1email": "fwplato@yahoo.com",
        "contact1phone": "918-855-1640",
        "contact2name": "Colton McDaniel",
        "contact2email": "mcdanielbc3@gmail.com",
        "contact2phone": "918-951-5900",
        "contact3name": "Mack Baughn",
        "contact3email": "",
        "contact3phone": "918-720-9476",
        "bstime": "09:00:00",
        "lstime": "10:00:00",
        "pmtime": "17:00:00",
        "midwkday": "Wednesday",
        "midwktime": "19:00:00",
        "streetview_angle": "277",
        "dist": "27.54",
        "updated": "2021-01-07 22:13:26",
        "latitude": "36.2640278",
        "longitude": "-95.8004155"
    },
    {
        "id": "8037",
        "address_long": "9119 E. 61st St., Tulsa, OK, 74145, USA",
        "name": "Woodland Hills",
        "address": "9119 E. 61st St.",
        "city": "Tulsa",
        "province": "OK",
        "postal_code": "74145",
        "country": "USA",
        "phone": "918-252-1220",
        "url": "www.woodlandhillscoc.com",
        "email": "",
        "mail": "",
        "assemblydetails": "Near 61st and Mingo in Tulsa. Near Rt. 169.",
        "photo": "id_8037",
        "contact1name": "Greg Geren",
        "contact1email": "",
        "contact1phone": "918-850-4640",
        "contact2name": "Andy Parsons",
        "contact2email": "andrewparsons@wilbros.com",
        "contact2phone": "918-272-7135",
        "contact3name": "",
        "contact3email": "",
        "contact3phone": "",
        "bstime": "09:30:00",
        "lstime": "10:30:00",
        "pmtime": "17:00:00",
        "midwkday": "Wednesday",
        "midwktime": "19:00:00",
        "streetview_angle": "13",
        "dist": "41.16",
        "updated": "2020-04-13 17:42:04",
        "latitude": "36.0758006",
        "longitude": "-95.87426119999998"
    },
    {
        "id": "8113",
        "address_long": "438356 E. Hwy 60, Vinita, Oklahoma, 74301, USA",
        "name": "",
        "address": "438356 E. Hwy 60",
        "city": "Vinita",
        "province": "Oklahoma",
        "postal_code": "74301",
        "country": "USA",
        "phone": "918-256-6319",
        "url": "www.vinitachurchofchrist.com",
        "email": "",
        "mail": "Box 123",
        "assemblydetails": "2 1/2 miles West of Vinita, Oklahoma on US Hwy 60",
        "photo": "",
        "contact1name": "Bob Hampton",
        "contact1email": "vinitachurchofchrist@yahoo.com",
        "contact1phone": "918-256-6319",
        "contact2name": "Frank Haltom",
        "contact2email": "vinitachurchofchrist@yahoo.com",
        "contact2phone": "918-244-1999",
        "contact3name": "",
        "contact3email": "",
        "contact3phone": "",
        "bstime": "09:45:00",
        "lstime": "10:45:00",
        "pmtime": "14:00:00",
        "midwkday": "Wednesday",
        "midwktime": "19:00:00",
        "streetview_angle": "0",
        "dist": "45.37",
        "updated": "2021-05-25 05:54:58",
        "latitude": "36.62750517138731",
        "longitude": "-95.19148430422973"
    }
]
